VehicleName, TimeStamp, POS_X, POS_Y, POS_Z, Q_W, Q_X, Q_Y, Q_Z, ImageFile, Roll, Pitch, Yaw, x_range, y_range, z_range, pc_x_range, pc_y_range, pc_z_range, occ_size, pc_range, points, lidar_point, previous_time, next_time, cam2lidar, images_root, coors, output_labels, depth_values_outputs, lidar2img, intrinsic, ego2world
SimpleFlight~1727678603297~144.241~685.789~15.5438~0.912697~1.64664e-08~1.22278e-09~-0.408636~img_SimpleFlight_0_0_1727678603943455700.png;img_SimpleFlight_1_0_1727678603944325900.png;img_SimpleFlight_2_0_1727678603945107100.png;img_SimpleFlight_3_0_1727678603946235500.png;img_SimpleFlight_4_0_1727678603946974900.png;img_SimpleFlight_0_1_1727678603947676500.pfm;img_SimpleFlight_1_1_1727678603955563300.pfm;img_SimpleFlight_2_1_1727678603963779700.pfm;img_SimpleFlight_3_1_1727678603974087900.pfm;img_SimpleFlight_4_1_1727678603988539600.pfm~-1.5689582936119997e-08~2.9058323905440006e-08~-2.2996735115612967~(96, 96)~(0, 128)~(96, 96)~(48, 48)~(0, 64)~(48, 48)~[96, 64, 96]~[-96, -64, -96, 96, 0, 96]~/mnt/d/dataset//urbanbis//qingdao//2024-09-30-14-43-22//points//pointscam_1727678603297.txt~/mnt/d/dataset//urbanbis//qingdao//2024-09-30-14-43-22//lidar_point//lidar_point1727678603297.txt~1727678608079~1727678611190~/mnt/d/dataset//urbanbis//qingdao//2024-09-30-14-43-22//metas//cam2liadar_1727678603297.npy~['/mnt/d/dataset//urbanbis//qingdao//2024-09-30-14-43-22//imgs//img_SimpleFlight_0_0_1727678603297.png', '/mnt/d/dataset//urbanbis//qingdao//2024-09-30-14-43-22//imgs//img_SimpleFlight_1_0_1727678603297.png', '/mnt/d/dataset//urbanbis//qingdao//2024-09-30-14-43-22//imgs//img_SimpleFlight_2_0_1727678603297.png', '/mnt/d/dataset//urbanbis//qingdao//2024-09-30-14-43-22//imgs//img_SimpleFlight_3_0_1727678603297.png', '/mnt/d/dataset//urbanbis//qingdao//2024-09-30-14-43-22//imgs//img_SimpleFlight_4_0_1727678603297.png']~/mnt/d/dataset//urbanbis//qingdao//2024-09-30-14-43-22//depthAndSeg//1727678603297_coor_.pkl~/mnt/d/dataset//urbanbis//qingdao//2024-09-30-14-43-22//depthAndSeg//1727678603297_label_.pkl~/mnt/d/dataset//urbanbis//qingdao//2024-09-30-14-43-22//depthAndSeg//1727678603297_depthvalues_.pkl~/mnt/d/dataset//urbanbis//qingdao//2024-09-30-14-43-22//metas//cam2pix_1727678603297.npy~/mnt/d/dataset//urbanbis//qingdao//2024-09-30-14-43-22//metas//intrinsic_1727678603297.npy~/mnt/d/dataset//urbanbis//qingdao//2024-09-30-14-43-22//metas//ego2world_1727678603297.npy
SimpleFlight~1727678605004~144.241~685.789~15.5973~0.88696~9.3698e-10~-6.94169e-10~-0.461847~img_SimpleFlight_0_0_1727678605660107000.png;img_SimpleFlight_1_0_1727678605661062600.png;img_SimpleFlight_2_0_1727678605661850400.png;img_SimpleFlight_3_0_1727678605662561300.png;img_SimpleFlight_4_0_1727678605663708400.png;img_SimpleFlight_0_1_1727678605664410000.pfm;img_SimpleFlight_1_1_1727678605671879600.pfm;img_SimpleFlight_2_1_1727678605679443700.pfm;img_SimpleFlight_3_1_1727678605687111600.pfm;img_SimpleFlight_4_1_1727678605695367600.pfm~3.659174683599998e-10~2.303327301886e-09~-2.181440648284516~(96, 96)~(0, 128)~(96, 96)~(48, 48)~(0, 64)~(48, 48)~[96, 64, 96]~[-96, -64, -96, 96, 0, 96]~/mnt/d/dataset//urbanbis//qingdao//2024-09-30-14-43-22//points//pointscam_1727678605004.txt~/mnt/d/dataset//urbanbis//qingdao//2024-09-30-14-43-22//lidar_point//lidar_point1727678605004.txt~1727678608079~1727678611190~/mnt/d/dataset//urbanbis//qingdao//2024-09-30-14-43-22//metas//cam2liadar_1727678605004.npy~['/mnt/d/dataset//urbanbis//qingdao//2024-09-30-14-43-22//imgs//img_SimpleFlight_0_0_1727678605004.png', '/mnt/d/dataset//urbanbis//qingdao//2024-09-30-14-43-22//imgs//img_SimpleFlight_1_0_1727678605004.png', '/mnt/d/dataset//urbanbis//qingdao//2024-09-30-14-43-22//imgs//img_SimpleFlight_2_0_1727678605004.png', '/mnt/d/dataset//urbanbis//qingdao//2024-09-30-14-43-22//imgs//img_SimpleFlight_3_0_1727678605004.png', '/mnt/d/dataset//urbanbis//qingdao//2024-09-30-14-43-22//imgs//img_SimpleFlight_4_0_1727678605004.png']~/mnt/d/dataset//urbanbis//qingdao//2024-09-30-14-43-22//depthAndSeg//1727678605004_coor_.pkl~/mnt/d/dataset//urbanbis//qingdao//2024-09-30-14-43-22//depthAndSeg//1727678605004_label_.pkl~/mnt/d/dataset//urbanbis//qingdao//2024-09-30-14-43-22//depthAndSeg//1727678605004_depthvalues_.pkl~/mnt/d/dataset//urbanbis//qingdao//2024-09-30-14-43-22//metas//cam2pix_1727678605004.npy~/mnt/d/dataset//urbanbis//qingdao//2024-09-30-14-43-22//metas//intrinsic_1727678605004.npy~/mnt/d/dataset//urbanbis//qingdao//2024-09-30-14-43-22//metas//ego2world_1727678605004.npy
SimpleFlight~1727678606486~144.257~685.766~15.6418~0.878008~-0.0316334~-0.0586115~-0.473989~img_SimpleFlight_0_0_1727678607128779100.png;img_SimpleFlight_1_0_1727678607130680500.png;img_SimpleFlight_2_0_1727678607132028400.png;img_SimpleFlight_3_0_1727678607133256800.png;img_SimpleFlight_4_0_1727678607134485900.png;img_SimpleFlight_0_1_1727678607135178800.pfm;img_SimpleFlight_1_1_1727678607148486400.pfm;img_SimpleFlight_2_1_1727678607159311900.pfm;img_SimpleFlight_3_1_1727678607167109400.pfm;img_SimpleFlight_4_1_1727678607181350300.pfm~0.13330495796165406~1.3778252704004575e-05~-2.1515635372158384~(96, 96)~(0, 128)~(96, 96)~(48, 48)~(0, 64)~(48, 48)~[96, 64, 96]~[-96, -64, -96, 96, 0, 96]~/mnt/d/dataset//urbanbis//qingdao//2024-09-30-14-43-22//points//pointscam_1727678606486.txt~/mnt/d/dataset//urbanbis//qingdao//2024-09-30-14-43-22//lidar_point//lidar_point1727678606486.txt~1727678608079~1727678611190~/mnt/d/dataset//urbanbis//qingdao//2024-09-30-14-43-22//metas//cam2liadar_1727678606486.npy~['/mnt/d/dataset//urbanbis//qingdao//2024-09-30-14-43-22//imgs//img_SimpleFlight_0_0_1727678606486.png', '/mnt/d/dataset//urbanbis//qingdao//2024-09-30-14-43-22//imgs//img_SimpleFlight_1_0_1727678606486.png', '/mnt/d/dataset//urbanbis//qingdao//2024-09-30-14-43-22//imgs//img_SimpleFlight_2_0_1727678606486.png', '/mnt/d/dataset//urbanbis//qingdao//2024-09-30-14-43-22//imgs//img_SimpleFlight_3_0_1727678606486.png', '/mnt/d/dataset//urbanbis//qingdao//2024-09-30-14-43-22//imgs//img_SimpleFlight_4_0_1727678606486.png']~/mnt/d/dataset//urbanbis//qingdao//2024-09-30-14-43-22//depthAndSeg//1727678606486_coor_.pkl~/mnt/d/dataset//urbanbis//qingdao//2024-09-30-14-43-22//depthAndSeg//1727678606486_label_.pkl~/mnt/d/dataset//urbanbis//qingdao//2024-09-30-14-43-22//depthAndSeg//1727678606486_depthvalues_.pkl~/mnt/d/dataset//urbanbis//qingdao//2024-09-30-14-43-22//metas//cam2pix_1727678606486.npy~/mnt/d/dataset//urbanbis//qingdao//2024-09-30-14-43-22//metas//intrinsic_1727678606486.npy~/mnt/d/dataset//urbanbis//qingdao//2024-09-30-14-43-22//metas//ego2world_1727678606486.npy
SimpleFlight~1727678608079~145.112~684.462~15.5716~0.879897~-0.00494309~-0.00915148~-0.47505~img_SimpleFlight_0_0_1727678608729961700.png;img_SimpleFlight_1_0_1727678608731644700.png;img_SimpleFlight_2_0_1727678608733030700.png;img_SimpleFlight_3_0_1727678608734536600.png;img_SimpleFlight_4_0_1727678608735347400.png;img_SimpleFlight_0_1_1727678608736113400.pfm;img_SimpleFlight_1_1_1727678608745352100.pfm;img_SimpleFlight_2_1_1727678608753224500.pfm;img_SimpleFlight_3_1_1727678608760996400.pfm;img_SimpleFlight_4_1_1727678608774617600.pfm~0.020802649763592137~-3.999840895353932e-06~-2.1514917805545117~(96, 96)~(0, 128)~(96, 96)~(48, 48)~(0, 64)~(48, 48)~[96, 64, 96]~[-96, -64, -96, 96, 0, 96]~/mnt/d/dataset//urbanbis//qingdao//2024-09-30-14-43-22//points//pointscam_1727678608079.txt~/mnt/d/dataset//urbanbis//qingdao//2024-09-30-14-43-22//lidar_point//lidar_point1727678608079.txt~1727678608079~1727678611190~/mnt/d/dataset//urbanbis//qingdao//2024-09-30-14-43-22//metas//cam2liadar_1727678608079.npy~['/mnt/d/dataset//urbanbis//qingdao//2024-09-30-14-43-22//imgs//img_SimpleFlight_0_0_1727678608079.png', '/mnt/d/dataset//urbanbis//qingdao//2024-09-30-14-43-22//imgs//img_SimpleFlight_1_0_1727678608079.png', '/mnt/d/dataset//urbanbis//qingdao//2024-09-30-14-43-22//imgs//img_SimpleFlight_2_0_1727678608079.png', '/mnt/d/dataset//urbanbis//qingdao//2024-09-30-14-43-22//imgs//img_SimpleFlight_3_0_1727678608079.png', '/mnt/d/dataset//urbanbis//qingdao//2024-09-30-14-43-22//imgs//img_SimpleFlight_4_0_1727678608079.png']~/mnt/d/dataset//urbanbis//qingdao//2024-09-30-14-43-22//depthAndSeg//1727678608079_coor_.pkl~/mnt/d/dataset//urbanbis//qingdao//2024-09-30-14-43-22//depthAndSeg//1727678608079_label_.pkl~/mnt/d/dataset//urbanbis//qingdao//2024-09-30-14-43-22//depthAndSeg//1727678608079_depthvalues_.pkl~/mnt/d/dataset//urbanbis//qingdao//2024-09-30-14-43-22//metas//cam2pix_1727678608079.npy~/mnt/d/dataset//urbanbis//qingdao//2024-09-30-14-43-22//metas//intrinsic_1727678608079.npy~/mnt/d/dataset//urbanbis//qingdao//2024-09-30-14-43-22//metas//ego2world_1727678608079.npy
SimpleFlight~1727678609570~146.286~682.675~15.5777~0.879943~-0.00085138~-0.00157622~-0.475075~img_SimpleFlight_0_0_1727678610226208900.png;img_SimpleFlight_1_0_1727678610227259200.png;img_SimpleFlight_2_0_1727678610228018900.png;img_SimpleFlight_3_0_1727678610228778600.png;img_SimpleFlight_4_0_1727678610229493700.png;img_SimpleFlight_0_1_1727678610230262100.pfm;img_SimpleFlight_1_1_1727678610237630000.pfm;img_SimpleFlight_2_1_1727678610245913500.pfm;img_SimpleFlight_3_1_1727678610253543900.pfm;img_SimpleFlight_4_1_1727678610264527700.pfm~0.0035829138837216983~-6.863140851994889e-07~-2.151491225405798~(96, 96)~(0, 128)~(96, 96)~(48, 48)~(0, 64)~(48, 48)~[96, 64, 96]~[-96, -64, -96, 96, 0, 96]~/mnt/d/dataset//urbanbis//qingdao//2024-09-30-14-43-22//points//pointscam_1727678609570.txt~/mnt/d/dataset//urbanbis//qingdao//2024-09-30-14-43-22//lidar_point//lidar_point1727678609570.txt~1727678608079~1727678611190~/mnt/d/dataset//urbanbis//qingdao//2024-09-30-14-43-22//metas//cam2liadar_1727678609570.npy~['/mnt/d/dataset//urbanbis//qingdao//2024-09-30-14-43-22//imgs//img_SimpleFlight_0_0_1727678609570.png', '/mnt/d/dataset//urbanbis//qingdao//2024-09-30-14-43-22//imgs//img_SimpleFlight_1_0_1727678609570.png', '/mnt/d/dataset//urbanbis//qingdao//2024-09-30-14-43-22//imgs//img_SimpleFlight_2_0_1727678609570.png', '/mnt/d/dataset//urbanbis//qingdao//2024-09-30-14-43-22//imgs//img_SimpleFlight_3_0_1727678609570.png', '/mnt/d/dataset//urbanbis//qingdao//2024-09-30-14-43-22//imgs//img_SimpleFlight_4_0_1727678609570.png']~/mnt/d/dataset//urbanbis//qingdao//2024-09-30-14-43-22//depthAndSeg//1727678609570_coor_.pkl~/mnt/d/dataset//urbanbis//qingdao//2024-09-30-14-43-22//depthAndSeg//1727678609570_label_.pkl~/mnt/d/dataset//urbanbis//qingdao//2024-09-30-14-43-22//depthAndSeg//1727678609570_depthvalues_.pkl~/mnt/d/dataset//urbanbis//qingdao//2024-09-30-14-43-22//metas//cam2pix_1727678609570.npy~/mnt/d/dataset//urbanbis//qingdao//2024-09-30-14-43-22//metas//intrinsic_1727678609570.npy~/mnt/d/dataset//urbanbis//qingdao//2024-09-30-14-43-22//metas//ego2world_1727678609570.npy
SimpleFlight~1727678611190~147.602~680.664~15.583~0.879944~-0.000394662~-0.000731071~-0.475076~img_SimpleFlight_0_0_1727678611839747700.png;img_SimpleFlight_1_0_1727678611841424100.png;img_SimpleFlight_2_0_1727678611842622000.png;img_SimpleFlight_3_0_1727678611844471700.png;img_SimpleFlight_4_0_1727678611845730300.png;img_SimpleFlight_0_1_1727678611846814900.pfm;img_SimpleFlight_1_1_1727678611858400500.pfm;img_SimpleFlight_2_1_1727678611867488000.pfm;img_SimpleFlight_3_1_1727678611879245400.pfm;img_SimpleFlight_4_1_1727678611886826200.pfm~0.0016615927332511353~6.765502939414467e-08~-2.151490574030067~(96, 96)~(0, 128)~(96, 96)~(48, 48)~(0, 64)~(48, 48)~[96, 64, 96]~[-96, -64, -96, 96, 0, 96]~/mnt/d/dataset//urbanbis//qingdao//2024-09-30-14-43-22//points//pointscam_1727678611190.txt~/mnt/d/dataset//urbanbis//qingdao//2024-09-30-14-43-22//lidar_point//lidar_point1727678611190.txt~1727678608079~1727678611190~/mnt/d/dataset//urbanbis//qingdao//2024-09-30-14-43-22//metas//cam2liadar_1727678611190.npy~['/mnt/d/dataset//urbanbis//qingdao//2024-09-30-14-43-22//imgs//img_SimpleFlight_0_0_1727678611190.png', '/mnt/d/dataset//urbanbis//qingdao//2024-09-30-14-43-22//imgs//img_SimpleFlight_1_0_1727678611190.png', '/mnt/d/dataset//urbanbis//qingdao//2024-09-30-14-43-22//imgs//img_SimpleFlight_2_0_1727678611190.png', '/mnt/d/dataset//urbanbis//qingdao//2024-09-30-14-43-22//imgs//img_SimpleFlight_3_0_1727678611190.png', '/mnt/d/dataset//urbanbis//qingdao//2024-09-30-14-43-22//imgs//img_SimpleFlight_4_0_1727678611190.png']~/mnt/d/dataset//urbanbis//qingdao//2024-09-30-14-43-22//depthAndSeg//1727678611190_coor_.pkl~/mnt/d/dataset//urbanbis//qingdao//2024-09-30-14-43-22//depthAndSeg//1727678611190_label_.pkl~/mnt/d/dataset//urbanbis//qingdao//2024-09-30-14-43-22//depthAndSeg//1727678611190_depthvalues_.pkl~/mnt/d/dataset//urbanbis//qingdao//2024-09-30-14-43-22//metas//cam2pix_1727678611190.npy~/mnt/d/dataset//urbanbis//qingdao//2024-09-30-14-43-22//metas//intrinsic_1727678611190.npy~/mnt/d/dataset//urbanbis//qingdao//2024-09-30-14-43-22//metas//ego2world_1727678611190.npy
SimpleFlight~1727678612753~148.874~678.724~15.5878~0.879945~-0.000354053~-0.000655786~-0.475076~img_SimpleFlight_0_0_1727678613409975300.png;img_SimpleFlight_1_0_1727678613410947500.png;img_SimpleFlight_2_0_1727678613411910000.png;img_SimpleFlight_3_0_1727678613412684800.png;img_SimpleFlight_4_0_1727678613413398200.png;img_SimpleFlight_0_1_1727678613414449800.pfm;img_SimpleFlight_1_1_1727678613421853700.pfm;img_SimpleFlight_2_1_1727678613430334600.pfm;img_SimpleFlight_3_1_1727678613437690600.pfm;img_SimpleFlight_4_1_1727678613446983900.pfm~0.0014905159414936912~2.045304271990018e-09~-2.1514928829330726~(96, 96)~(0, 128)~(96, 96)~(48, 48)~(0, 64)~(48, 48)~[96, 64, 96]~[-96, -64, -96, 96, 0, 96]~/mnt/d/dataset//urbanbis//qingdao//2024-09-30-14-43-22//points//pointscam_1727678612753.txt~/mnt/d/dataset//urbanbis//qingdao//2024-09-30-14-43-22//lidar_point//lidar_point1727678612753.txt~1727678608079~1727678611190~/mnt/d/dataset//urbanbis//qingdao//2024-09-30-14-43-22//metas//cam2liadar_1727678612753.npy~['/mnt/d/dataset//urbanbis//qingdao//2024-09-30-14-43-22//imgs//img_SimpleFlight_0_0_1727678612753.png', '/mnt/d/dataset//urbanbis//qingdao//2024-09-30-14-43-22//imgs//img_SimpleFlight_1_0_1727678612753.png', '/mnt/d/dataset//urbanbis//qingdao//2024-09-30-14-43-22//imgs//img_SimpleFlight_2_0_1727678612753.png', '/mnt/d/dataset//urbanbis//qingdao//2024-09-30-14-43-22//imgs//img_SimpleFlight_3_0_1727678612753.png', '/mnt/d/dataset//urbanbis//qingdao//2024-09-30-14-43-22//imgs//img_SimpleFlight_4_0_1727678612753.png']~/mnt/d/dataset//urbanbis//qingdao//2024-09-30-14-43-22//depthAndSeg//1727678612753_coor_.pkl~/mnt/d/dataset//urbanbis//qingdao//2024-09-30-14-43-22//depthAndSeg//1727678612753_label_.pkl~/mnt/d/dataset//urbanbis//qingdao//2024-09-30-14-43-22//depthAndSeg//1727678612753_depthvalues_.pkl~/mnt/d/dataset//urbanbis//qingdao//2024-09-30-14-43-22//metas//cam2pix_1727678612753.npy~/mnt/d/dataset//urbanbis//qingdao//2024-09-30-14-43-22//metas//intrinsic_1727678612753.npy~/mnt/d/dataset//urbanbis//qingdao//2024-09-30-14-43-22//metas//ego2world_1727678612753.npy
SimpleFlight~1727678614349~150.173~676.744~15.5923~0.879945~-0.00035003~-0.000648364~-0.475076~img_SimpleFlight_0_0_1727678615008602200.png;img_SimpleFlight_1_0_1727678615009472600.png;img_SimpleFlight_2_0_1727678615010437200.png;img_SimpleFlight_3_0_1727678615011231800.png;img_SimpleFlight_4_0_1727678615012358200.png;img_SimpleFlight_0_1_1727678615014272200.pfm;img_SimpleFlight_1_1_1727678615024291900.pfm;img_SimpleFlight_2_1_1727678615032362800.pfm;img_SimpleFlight_3_1_1727678615040078300.pfm;img_SimpleFlight_4_1_1727678615047633000.pfm~0.0014736315578738602~3.005466063324168e-08~-2.151492872451465~(96, 96)~(0, 128)~(96, 96)~(48, 48)~(0, 64)~(48, 48)~[96, 64, 96]~[-96, -64, -96, 96, 0, 96]~/mnt/d/dataset//urbanbis//qingdao//2024-09-30-14-43-22//points//pointscam_1727678614349.txt~/mnt/d/dataset//urbanbis//qingdao//2024-09-30-14-43-22//lidar_point//lidar_point1727678614349.txt~1727678608079~1727678611190~/mnt/d/dataset//urbanbis//qingdao//2024-09-30-14-43-22//metas//cam2liadar_1727678614349.npy~['/mnt/d/dataset//urbanbis//qingdao//2024-09-30-14-43-22//imgs//img_SimpleFlight_0_0_1727678614349.png', '/mnt/d/dataset//urbanbis//qingdao//2024-09-30-14-43-22//imgs//img_SimpleFlight_1_0_1727678614349.png', '/mnt/d/dataset//urbanbis//qingdao//2024-09-30-14-43-22//imgs//img_SimpleFlight_2_0_1727678614349.png', '/mnt/d/dataset//urbanbis//qingdao//2024-09-30-14-43-22//imgs//img_SimpleFlight_3_0_1727678614349.png', '/mnt/d/dataset//urbanbis//qingdao//2024-09-30-14-43-22//imgs//img_SimpleFlight_4_0_1727678614349.png']~/mnt/d/dataset//urbanbis//qingdao//2024-09-30-14-43-22//depthAndSeg//1727678614349_coor_.pkl~/mnt/d/dataset//urbanbis//qingdao//2024-09-30-14-43-22//depthAndSeg//1727678614349_label_.pkl~/mnt/d/dataset//urbanbis//qingdao//2024-09-30-14-43-22//depthAndSeg//1727678614349_depthvalues_.pkl~/mnt/d/dataset//urbanbis//qingdao//2024-09-30-14-43-22//metas//cam2pix_1727678614349.npy~/mnt/d/dataset//urbanbis//qingdao//2024-09-30-14-43-22//metas//intrinsic_1727678614349.npy~/mnt/d/dataset//urbanbis//qingdao//2024-09-30-14-43-22//metas//ego2world_1727678614349.npy
SimpleFlight~1727678615993~151.511~674.703~15.597~0.879945~-0.000350022~-0.000648313~-0.475076~img_SimpleFlight_0_0_1727678616650608300.png;img_SimpleFlight_1_0_1727678616651788100.png;img_SimpleFlight_2_0_1727678616652636700.png;img_SimpleFlight_3_0_1727678616653415300.png;img_SimpleFlight_4_0_1727678616654430800.png;img_SimpleFlight_0_1_1727678616655127400.pfm;img_SimpleFlight_1_1_1727678616662454800.pfm;img_SimpleFlight_2_1_1727678616671644600.pfm;img_SimpleFlight_3_1_1727678616679656700.pfm;img_SimpleFlight_4_1_1727678616688951500.pfm~0.0014735342021621586~-4.324008694377764e-09~-2.1514928724168225~(96, 96)~(0, 128)~(96, 96)~(48, 48)~(0, 64)~(48, 48)~[96, 64, 96]~[-96, -64, -96, 96, 0, 96]~/mnt/d/dataset//urbanbis//qingdao//2024-09-30-14-43-22//points//pointscam_1727678615993.txt~/mnt/d/dataset//urbanbis//qingdao//2024-09-30-14-43-22//lidar_point//lidar_point1727678615993.txt~1727678608079~1727678611190~/mnt/d/dataset//urbanbis//qingdao//2024-09-30-14-43-22//metas//cam2liadar_1727678615993.npy~['/mnt/d/dataset//urbanbis//qingdao//2024-09-30-14-43-22//imgs//img_SimpleFlight_0_0_1727678615993.png', '/mnt/d/dataset//urbanbis//qingdao//2024-09-30-14-43-22//imgs//img_SimpleFlight_1_0_1727678615993.png', '/mnt/d/dataset//urbanbis//qingdao//2024-09-30-14-43-22//imgs//img_SimpleFlight_2_0_1727678615993.png', '/mnt/d/dataset//urbanbis//qingdao//2024-09-30-14-43-22//imgs//img_SimpleFlight_3_0_1727678615993.png', '/mnt/d/dataset//urbanbis//qingdao//2024-09-30-14-43-22//imgs//img_SimpleFlight_4_0_1727678615993.png']~/mnt/d/dataset//urbanbis//qingdao//2024-09-30-14-43-22//depthAndSeg//1727678615993_coor_.pkl~/mnt/d/dataset//urbanbis//qingdao//2024-09-30-14-43-22//depthAndSeg//1727678615993_label_.pkl~/mnt/d/dataset//urbanbis//qingdao//2024-09-30-14-43-22//depthAndSeg//1727678615993_depthvalues_.pkl~/mnt/d/dataset//urbanbis//qingdao//2024-09-30-14-43-22//metas//cam2pix_1727678615993.npy~/mnt/d/dataset//urbanbis//qingdao//2024-09-30-14-43-22//metas//intrinsic_1727678615993.npy~/mnt/d/dataset//urbanbis//qingdao//2024-09-30-14-43-22//metas//ego2world_1727678615993.npy
SimpleFlight~1727678617550~152.778~672.771~15.6015~0.879945~-0.000349987~-0.000648248~-0.475076~img_SimpleFlight_0_0_1727678618214266200.png;img_SimpleFlight_1_0_1727678618215677100.png;img_SimpleFlight_2_0_1727678618217019800.png;img_SimpleFlight_3_0_1727678618217758100.png;img_SimpleFlight_4_0_1727678618218460100.png;img_SimpleFlight_0_1_1727678618219122800.pfm;img_SimpleFlight_1_1_1727678618227937600.pfm;img_SimpleFlight_2_1_1727678618235657100.pfm;img_SimpleFlight_3_1_1727678618243703500.pfm;img_SimpleFlight_4_1_1727678618252575100.pfm~0.0014733865538318805~-4.487738871090728e-09~-2.1514928723259965~(96, 96)~(0, 128)~(96, 96)~(48, 48)~(0, 64)~(48, 48)~[96, 64, 96]~[-96, -64, -96, 96, 0, 96]~/mnt/d/dataset//urbanbis//qingdao//2024-09-30-14-43-22//points//pointscam_1727678617550.txt~/mnt/d/dataset//urbanbis//qingdao//2024-09-30-14-43-22//lidar_point//lidar_point1727678617550.txt~1727678608079~1727678611190~/mnt/d/dataset//urbanbis//qingdao//2024-09-30-14-43-22//metas//cam2liadar_1727678617550.npy~['/mnt/d/dataset//urbanbis//qingdao//2024-09-30-14-43-22//imgs//img_SimpleFlight_0_0_1727678617550.png', '/mnt/d/dataset//urbanbis//qingdao//2024-09-30-14-43-22//imgs//img_SimpleFlight_1_0_1727678617550.png', '/mnt/d/dataset//urbanbis//qingdao//2024-09-30-14-43-22//imgs//img_SimpleFlight_2_0_1727678617550.png', '/mnt/d/dataset//urbanbis//qingdao//2024-09-30-14-43-22//imgs//img_SimpleFlight_3_0_1727678617550.png', '/mnt/d/dataset//urbanbis//qingdao//2024-09-30-14-43-22//imgs//img_SimpleFlight_4_0_1727678617550.png']~/mnt/d/dataset//urbanbis//qingdao//2024-09-30-14-43-22//depthAndSeg//1727678617550_coor_.pkl~/mnt/d/dataset//urbanbis//qingdao//2024-09-30-14-43-22//depthAndSeg//1727678617550_label_.pkl~/mnt/d/dataset//urbanbis//qingdao//2024-09-30-14-43-22//depthAndSeg//1727678617550_depthvalues_.pkl~/mnt/d/dataset//urbanbis//qingdao//2024-09-30-14-43-22//metas//cam2pix_1727678617550.npy~/mnt/d/dataset//urbanbis//qingdao//2024-09-30-14-43-22//metas//intrinsic_1727678617550.npy~/mnt/d/dataset//urbanbis//qingdao//2024-09-30-14-43-22//metas//ego2world_1727678617550.npy
SimpleFlight~1727678619218~154.135~670.701~15.6063~0.879945~-0.000349962~-0.000648203~-0.475076~img_SimpleFlight_0_0_1727678619871436600.png;img_SimpleFlight_1_0_1727678619873081100.png;img_SimpleFlight_2_0_1727678619874411300.png;img_SimpleFlight_3_0_1727678619875511700.png;img_SimpleFlight_4_0_1727678619876421700.png;img_SimpleFlight_0_1_1727678619877099700.pfm;img_SimpleFlight_1_1_1727678619884721700.pfm;img_SimpleFlight_2_1_1727678619897206200.pfm;img_SimpleFlight_3_1_1727678619907774000.pfm;img_SimpleFlight_4_1_1727678619918881400.pfm~0.0014732836048701435~-3.247327524240576e-09~-2.151492872261675~(96, 96)~(0, 128)~(96, 96)~(48, 48)~(0, 64)~(48, 48)~[96, 64, 96]~[-96, -64, -96, 96, 0, 96]~/mnt/d/dataset//urbanbis//qingdao//2024-09-30-14-43-22//points//pointscam_1727678619218.txt~/mnt/d/dataset//urbanbis//qingdao//2024-09-30-14-43-22//lidar_point//lidar_point1727678619218.txt~1727678608079~1727678611190~/mnt/d/dataset//urbanbis//qingdao//2024-09-30-14-43-22//metas//cam2liadar_1727678619218.npy~['/mnt/d/dataset//urbanbis//qingdao//2024-09-30-14-43-22//imgs//img_SimpleFlight_0_0_1727678619218.png', '/mnt/d/dataset//urbanbis//qingdao//2024-09-30-14-43-22//imgs//img_SimpleFlight_1_0_1727678619218.png', '/mnt/d/dataset//urbanbis//qingdao//2024-09-30-14-43-22//imgs//img_SimpleFlight_2_0_1727678619218.png', '/mnt/d/dataset//urbanbis//qingdao//2024-09-30-14-43-22//imgs//img_SimpleFlight_3_0_1727678619218.png', '/mnt/d/dataset//urbanbis//qingdao//2024-09-30-14-43-22//imgs//img_SimpleFlight_4_0_1727678619218.png']~/mnt/d/dataset//urbanbis//qingdao//2024-09-30-14-43-22//depthAndSeg//1727678619218_coor_.pkl~/mnt/d/dataset//urbanbis//qingdao//2024-09-30-14-43-22//depthAndSeg//1727678619218_label_.pkl~/mnt/d/dataset//urbanbis//qingdao//2024-09-30-14-43-22//depthAndSeg//1727678619218_depthvalues_.pkl~/mnt/d/dataset//urbanbis//qingdao//2024-09-30-14-43-22//metas//cam2pix_1727678619218.npy~/mnt/d/dataset//urbanbis//qingdao//2024-09-30-14-43-22//metas//intrinsic_1727678619218.npy~/mnt/d/dataset//urbanbis//qingdao//2024-09-30-14-43-22//metas//ego2world_1727678619218.npy
SimpleFlight~1727678620862~155.473~668.661~15.611~0.879945~-0.000350013~-0.000648268~-0.475076~img_SimpleFlight_0_0_1727678621521149800.png;img_SimpleFlight_1_0_1727678621522308300.png;img_SimpleFlight_2_0_1727678621523365700.png;img_SimpleFlight_3_0_1727678621524103100.png;img_SimpleFlight_4_0_1727678621524807400.png;img_SimpleFlight_0_1_1727678621525566100.pfm;img_SimpleFlight_1_1_1727678621533124300.pfm;img_SimpleFlight_2_1_1727678621540511200.pfm;img_SimpleFlight_3_1_1727678621549630900.pfm;img_SimpleFlight_4_1_1727678621560171200.pfm~0.0014734464556489023~-3.124186791363226e-08~-2.1514928723826037~(96, 96)~(0, 128)~(96, 96)~(48, 48)~(0, 64)~(48, 48)~[96, 64, 96]~[-96, -64, -96, 96, 0, 96]~/mnt/d/dataset//urbanbis//qingdao//2024-09-30-14-43-22//points//pointscam_1727678620862.txt~/mnt/d/dataset//urbanbis//qingdao//2024-09-30-14-43-22//lidar_point//lidar_point1727678620862.txt~1727678608079~1727678611190~/mnt/d/dataset//urbanbis//qingdao//2024-09-30-14-43-22//metas//cam2liadar_1727678620862.npy~['/mnt/d/dataset//urbanbis//qingdao//2024-09-30-14-43-22//imgs//img_SimpleFlight_0_0_1727678620862.png', '/mnt/d/dataset//urbanbis//qingdao//2024-09-30-14-43-22//imgs//img_SimpleFlight_1_0_1727678620862.png', '/mnt/d/dataset//urbanbis//qingdao//2024-09-30-14-43-22//imgs//img_SimpleFlight_2_0_1727678620862.png', '/mnt/d/dataset//urbanbis//qingdao//2024-09-30-14-43-22//imgs//img_SimpleFlight_3_0_1727678620862.png', '/mnt/d/dataset//urbanbis//qingdao//2024-09-30-14-43-22//imgs//img_SimpleFlight_4_0_1727678620862.png']~/mnt/d/dataset//urbanbis//qingdao//2024-09-30-14-43-22//depthAndSeg//1727678620862_coor_.pkl~/mnt/d/dataset//urbanbis//qingdao//2024-09-30-14-43-22//depthAndSeg//1727678620862_label_.pkl~/mnt/d/dataset//urbanbis//qingdao//2024-09-30-14-43-22//depthAndSeg//1727678620862_depthvalues_.pkl~/mnt/d/dataset//urbanbis//qingdao//2024-09-30-14-43-22//metas//cam2pix_1727678620862.npy~/mnt/d/dataset//urbanbis//qingdao//2024-09-30-14-43-22//metas//intrinsic_1727678620862.npy~/mnt/d/dataset//urbanbis//qingdao//2024-09-30-14-43-22//metas//ego2world_1727678620862.npy
SimpleFlight~1727678622479~156.789~666.654~15.6156~0.879945~-0.000349997~-0.000648174~-0.475076~img_SimpleFlight_0_0_1727678623144571500.png;img_SimpleFlight_1_0_1727678623145951200.png;img_SimpleFlight_2_0_1727678623146807300.png;img_SimpleFlight_3_0_1727678623147976700.png;img_SimpleFlight_4_0_1727678623148683000.png;img_SimpleFlight_0_1_1727678623149354000.pfm;img_SimpleFlight_1_1_1727678623156818300.pfm;img_SimpleFlight_2_1_1727678623164522300.pfm;img_SimpleFlight_3_1_1727678623172089800.pfm;img_SimpleFlight_4_1_1727678623180462400.pfm~0.001473265823360846~-9.239798227542411e-08~-2.1514928723163966~(96, 96)~(0, 128)~(96, 96)~(48, 48)~(0, 64)~(48, 48)~[96, 64, 96]~[-96, -64, -96, 96, 0, 96]~/mnt/d/dataset//urbanbis//qingdao//2024-09-30-14-43-22//points//pointscam_1727678622479.txt~/mnt/d/dataset//urbanbis//qingdao//2024-09-30-14-43-22//lidar_point//lidar_point1727678622479.txt~1727678608079~1727678611190~/mnt/d/dataset//urbanbis//qingdao//2024-09-30-14-43-22//metas//cam2liadar_1727678622479.npy~['/mnt/d/dataset//urbanbis//qingdao//2024-09-30-14-43-22//imgs//img_SimpleFlight_0_0_1727678622479.png', '/mnt/d/dataset//urbanbis//qingdao//2024-09-30-14-43-22//imgs//img_SimpleFlight_1_0_1727678622479.png', '/mnt/d/dataset//urbanbis//qingdao//2024-09-30-14-43-22//imgs//img_SimpleFlight_2_0_1727678622479.png', '/mnt/d/dataset//urbanbis//qingdao//2024-09-30-14-43-22//imgs//img_SimpleFlight_3_0_1727678622479.png', '/mnt/d/dataset//urbanbis//qingdao//2024-09-30-14-43-22//imgs//img_SimpleFlight_4_0_1727678622479.png']~/mnt/d/dataset//urbanbis//qingdao//2024-09-30-14-43-22//depthAndSeg//1727678622479_coor_.pkl~/mnt/d/dataset//urbanbis//qingdao//2024-09-30-14-43-22//depthAndSeg//1727678622479_label_.pkl~/mnt/d/dataset//urbanbis//qingdao//2024-09-30-14-43-22//depthAndSeg//1727678622479_depthvalues_.pkl~/mnt/d/dataset//urbanbis//qingdao//2024-09-30-14-43-22//metas//cam2pix_1727678622479.npy~/mnt/d/dataset//urbanbis//qingdao//2024-09-30-14-43-22//metas//intrinsic_1727678622479.npy~/mnt/d/dataset//urbanbis//qingdao//2024-09-30-14-43-22//metas//ego2world_1727678622479.npy
SimpleFlight~1727678624123~158.127~664.614~15.6203~0.879945~-0.000350013~-0.00064815~-0.475076~img_SimpleFlight_0_0_1727678624784139500.png;img_SimpleFlight_1_0_1727678624785189500.png;img_SimpleFlight_2_0_1727678624785955800.png;img_SimpleFlight_3_0_1727678624786771300.png;img_SimpleFlight_4_0_1727678624787588300.png;img_SimpleFlight_0_1_1727678624789160300.pfm;img_SimpleFlight_1_1_1727678624798547700.pfm;img_SimpleFlight_2_1_1727678624808931000.pfm;img_SimpleFlight_3_1_1727678624818537600.pfm;img_SimpleFlight_4_1_1727678624826362800.pfm~0.0014732387884035067~-1.4335992557635452e-07~-2.151492872337287~(96, 96)~(0, 128)~(96, 96)~(48, 48)~(0, 64)~(48, 48)~[96, 64, 96]~[-96, -64, -96, 96, 0, 96]~/mnt/d/dataset//urbanbis//qingdao//2024-09-30-14-43-22//points//pointscam_1727678624123.txt~/mnt/d/dataset//urbanbis//qingdao//2024-09-30-14-43-22//lidar_point//lidar_point1727678624123.txt~1727678608079~1727678611190~/mnt/d/dataset//urbanbis//qingdao//2024-09-30-14-43-22//metas//cam2liadar_1727678624123.npy~['/mnt/d/dataset//urbanbis//qingdao//2024-09-30-14-43-22//imgs//img_SimpleFlight_0_0_1727678624123.png', '/mnt/d/dataset//urbanbis//qingdao//2024-09-30-14-43-22//imgs//img_SimpleFlight_1_0_1727678624123.png', '/mnt/d/dataset//urbanbis//qingdao//2024-09-30-14-43-22//imgs//img_SimpleFlight_2_0_1727678624123.png', '/mnt/d/dataset//urbanbis//qingdao//2024-09-30-14-43-22//imgs//img_SimpleFlight_3_0_1727678624123.png', '/mnt/d/dataset//urbanbis//qingdao//2024-09-30-14-43-22//imgs//img_SimpleFlight_4_0_1727678624123.png']~/mnt/d/dataset//urbanbis//qingdao//2024-09-30-14-43-22//depthAndSeg//1727678624123_coor_.pkl~/mnt/d/dataset//urbanbis//qingdao//2024-09-30-14-43-22//depthAndSeg//1727678624123_label_.pkl~/mnt/d/dataset//urbanbis//qingdao//2024-09-30-14-43-22//depthAndSeg//1727678624123_depthvalues_.pkl~/mnt/d/dataset//urbanbis//qingdao//2024-09-30-14-43-22//metas//cam2pix_1727678624123.npy~/mnt/d/dataset//urbanbis//qingdao//2024-09-30-14-43-22//metas//intrinsic_1727678624123.npy~/mnt/d/dataset//urbanbis//qingdao//2024-09-30-14-43-22//metas//ego2world_1727678624123.npy
SimpleFlight~1727678625758~159.458~662.585~15.625~0.879945~-0.000350076~-0.000648213~-0.475076~img_SimpleFlight_0_0_1727678626423540400.png;img_SimpleFlight_1_0_1727678626424456300.png;img_SimpleFlight_2_0_1727678626425250600.png;img_SimpleFlight_3_0_1727678626426428600.png;img_SimpleFlight_4_0_1727678626427161400.png;img_SimpleFlight_0_1_1727678626427866000.pfm;img_SimpleFlight_1_1_1727678626435742800.pfm;img_SimpleFlight_2_1_1727678626444872100.pfm;img_SimpleFlight_3_1_1727678626455532000.pfm;img_SimpleFlight_4_1_1727678626463920800.pfm~0.0014734095212348103~-1.9437347498582648e-07~-2.1514928724800404~(96, 96)~(0, 128)~(96, 96)~(48, 48)~(0, 64)~(48, 48)~[96, 64, 96]~[-96, -64, -96, 96, 0, 96]~/mnt/d/dataset//urbanbis//qingdao//2024-09-30-14-43-22//points//pointscam_1727678625758.txt~/mnt/d/dataset//urbanbis//qingdao//2024-09-30-14-43-22//lidar_point//lidar_point1727678625758.txt~1727678608079~1727678611190~/mnt/d/dataset//urbanbis//qingdao//2024-09-30-14-43-22//metas//cam2liadar_1727678625758.npy~['/mnt/d/dataset//urbanbis//qingdao//2024-09-30-14-43-22//imgs//img_SimpleFlight_0_0_1727678625758.png', '/mnt/d/dataset//urbanbis//qingdao//2024-09-30-14-43-22//imgs//img_SimpleFlight_1_0_1727678625758.png', '/mnt/d/dataset//urbanbis//qingdao//2024-09-30-14-43-22//imgs//img_SimpleFlight_2_0_1727678625758.png', '/mnt/d/dataset//urbanbis//qingdao//2024-09-30-14-43-22//imgs//img_SimpleFlight_3_0_1727678625758.png', '/mnt/d/dataset//urbanbis//qingdao//2024-09-30-14-43-22//imgs//img_SimpleFlight_4_0_1727678625758.png']~/mnt/d/dataset//urbanbis//qingdao//2024-09-30-14-43-22//depthAndSeg//1727678625758_coor_.pkl~/mnt/d/dataset//urbanbis//qingdao//2024-09-30-14-43-22//depthAndSeg//1727678625758_label_.pkl~/mnt/d/dataset//urbanbis//qingdao//2024-09-30-14-43-22//depthAndSeg//1727678625758_depthvalues_.pkl~/mnt/d/dataset//urbanbis//qingdao//2024-09-30-14-43-22//metas//cam2pix_1727678625758.npy~/mnt/d/dataset//urbanbis//qingdao//2024-09-30-14-43-22//metas//intrinsic_1727678625758.npy~/mnt/d/dataset//urbanbis//qingdao//2024-09-30-14-43-22//metas//ego2world_1727678625758.npy
SimpleFlight~1727678627411~160.803~660.533~15.6297~0.879945~-0.000350113~-0.000648273~-0.475076~img_SimpleFlight_0_0_1727678628074565200.png;img_SimpleFlight_1_0_1727678628076666000.png;img_SimpleFlight_2_0_1727678628077848300.png;img_SimpleFlight_3_0_1727678628078757200.png;img_SimpleFlight_4_0_1727678628080110900.png;img_SimpleFlight_0_1_1727678628081053900.pfm;img_SimpleFlight_1_1_1727678628091173100.pfm;img_SimpleFlight_2_1_1727678628100855300.pfm;img_SimpleFlight_3_1_1727678628108278700.pfm;img_SimpleFlight_4_1_1727678628115832900.pfm~0.0014735502704116036~-2.0248029382759823e-07~-2.1514928725727254~(96, 96)~(0, 128)~(96, 96)~(48, 48)~(0, 64)~(48, 48)~[96, 64, 96]~[-96, -64, -96, 96, 0, 96]~/mnt/d/dataset//urbanbis//qingdao//2024-09-30-14-43-22//points//pointscam_1727678627411.txt~/mnt/d/dataset//urbanbis//qingdao//2024-09-30-14-43-22//lidar_point//lidar_point1727678627411.txt~1727678608079~1727678611190~/mnt/d/dataset//urbanbis//qingdao//2024-09-30-14-43-22//metas//cam2liadar_1727678627411.npy~['/mnt/d/dataset//urbanbis//qingdao//2024-09-30-14-43-22//imgs//img_SimpleFlight_0_0_1727678627411.png', '/mnt/d/dataset//urbanbis//qingdao//2024-09-30-14-43-22//imgs//img_SimpleFlight_1_0_1727678627411.png', '/mnt/d/dataset//urbanbis//qingdao//2024-09-30-14-43-22//imgs//img_SimpleFlight_2_0_1727678627411.png', '/mnt/d/dataset//urbanbis//qingdao//2024-09-30-14-43-22//imgs//img_SimpleFlight_3_0_1727678627411.png', '/mnt/d/dataset//urbanbis//qingdao//2024-09-30-14-43-22//imgs//img_SimpleFlight_4_0_1727678627411.png']~/mnt/d/dataset//urbanbis//qingdao//2024-09-30-14-43-22//depthAndSeg//1727678627411_coor_.pkl~/mnt/d/dataset//urbanbis//qingdao//2024-09-30-14-43-22//depthAndSeg//1727678627411_label_.pkl~/mnt/d/dataset//urbanbis//qingdao//2024-09-30-14-43-22//depthAndSeg//1727678627411_depthvalues_.pkl~/mnt/d/dataset//urbanbis//qingdao//2024-09-30-14-43-22//metas//cam2pix_1727678627411.npy~/mnt/d/dataset//urbanbis//qingdao//2024-09-30-14-43-22//metas//intrinsic_1727678627411.npy~/mnt/d/dataset//urbanbis//qingdao//2024-09-30-14-43-22//metas//ego2world_1727678627411.npy
SimpleFlight~1727678628911~162.024~658.672~15.634~0.879945~-0.000350015~-0.000648273~-0.475076~img_SimpleFlight_0_0_1727678629577392500.png;img_SimpleFlight_1_0_1727678629578634000.png;img_SimpleFlight_2_0_1727678629579709800.png;img_SimpleFlight_3_0_1727678629580732300.png;img_SimpleFlight_4_0_1727678629581603400.png;img_SimpleFlight_0_1_1727678629582392600.pfm;img_SimpleFlight_1_1_1727678629592043000.pfm;img_SimpleFlight_2_1_1727678629599966200.pfm;img_SimpleFlight_3_1_1727678629607537600.pfm;img_SimpleFlight_4_1_1727678629615189700.pfm~0.0014734571554145173~-3.001088657794987e-08~-2.1514928723882876~(96, 96)~(0, 128)~(96, 96)~(48, 48)~(0, 64)~(48, 48)~[96, 64, 96]~[-96, -64, -96, 96, 0, 96]~/mnt/d/dataset//urbanbis//qingdao//2024-09-30-14-43-22//points//pointscam_1727678628911.txt~/mnt/d/dataset//urbanbis//qingdao//2024-09-30-14-43-22//lidar_point//lidar_point1727678628911.txt~1727678608079~1727678611190~/mnt/d/dataset//urbanbis//qingdao//2024-09-30-14-43-22//metas//cam2liadar_1727678628911.npy~['/mnt/d/dataset//urbanbis//qingdao//2024-09-30-14-43-22//imgs//img_SimpleFlight_0_0_1727678628911.png', '/mnt/d/dataset//urbanbis//qingdao//2024-09-30-14-43-22//imgs//img_SimpleFlight_1_0_1727678628911.png', '/mnt/d/dataset//urbanbis//qingdao//2024-09-30-14-43-22//imgs//img_SimpleFlight_2_0_1727678628911.png', '/mnt/d/dataset//urbanbis//qingdao//2024-09-30-14-43-22//imgs//img_SimpleFlight_3_0_1727678628911.png', '/mnt/d/dataset//urbanbis//qingdao//2024-09-30-14-43-22//imgs//img_SimpleFlight_4_0_1727678628911.png']~/mnt/d/dataset//urbanbis//qingdao//2024-09-30-14-43-22//depthAndSeg//1727678628911_coor_.pkl~/mnt/d/dataset//urbanbis//qingdao//2024-09-30-14-43-22//depthAndSeg//1727678628911_label_.pkl~/mnt/d/dataset//urbanbis//qingdao//2024-09-30-14-43-22//depthAndSeg//1727678628911_depthvalues_.pkl~/mnt/d/dataset//urbanbis//qingdao//2024-09-30-14-43-22//metas//cam2pix_1727678628911.npy~/mnt/d/dataset//urbanbis//qingdao//2024-09-30-14-43-22//metas//intrinsic_1727678628911.npy~/mnt/d/dataset//urbanbis//qingdao//2024-09-30-14-43-22//metas//ego2world_1727678628911.npy
SimpleFlight~1727678630381~163.22~656.847~15.6382~0.879945~-0.000350001~-0.000648215~-0.475076~img_SimpleFlight_0_0_1727678631043760000.png;img_SimpleFlight_1_0_1727678631044983300.png;img_SimpleFlight_2_0_1727678631045907400.png;img_SimpleFlight_3_0_1727678631046698300.png;img_SimpleFlight_4_0_1727678631047451600.png;img_SimpleFlight_0_1_1727678631048285200.pfm;img_SimpleFlight_1_1_1727678631060190400.pfm;img_SimpleFlight_2_1_1727678631069797300.pfm;img_SimpleFlight_3_1_1727678631079958900.pfm;img_SimpleFlight_4_1_1727678631087612500.pfm~0.0014733417795412824~-6.048127564435153e-08~-2.1514928723396687~(96, 96)~(0, 128)~(96, 96)~(48, 48)~(0, 64)~(48, 48)~[96, 64, 96]~[-96, -64, -96, 96, 0, 96]~/mnt/d/dataset//urbanbis//qingdao//2024-09-30-14-43-22//points//pointscam_1727678630381.txt~/mnt/d/dataset//urbanbis//qingdao//2024-09-30-14-43-22//lidar_point//lidar_point1727678630381.txt~1727678608079~1727678611190~/mnt/d/dataset//urbanbis//qingdao//2024-09-30-14-43-22//metas//cam2liadar_1727678630381.npy~['/mnt/d/dataset//urbanbis//qingdao//2024-09-30-14-43-22//imgs//img_SimpleFlight_0_0_1727678630381.png', '/mnt/d/dataset//urbanbis//qingdao//2024-09-30-14-43-22//imgs//img_SimpleFlight_1_0_1727678630381.png', '/mnt/d/dataset//urbanbis//qingdao//2024-09-30-14-43-22//imgs//img_SimpleFlight_2_0_1727678630381.png', '/mnt/d/dataset//urbanbis//qingdao//2024-09-30-14-43-22//imgs//img_SimpleFlight_3_0_1727678630381.png', '/mnt/d/dataset//urbanbis//qingdao//2024-09-30-14-43-22//imgs//img_SimpleFlight_4_0_1727678630381.png']~/mnt/d/dataset//urbanbis//qingdao//2024-09-30-14-43-22//depthAndSeg//1727678630381_coor_.pkl~/mnt/d/dataset//urbanbis//qingdao//2024-09-30-14-43-22//depthAndSeg//1727678630381_label_.pkl~/mnt/d/dataset//urbanbis//qingdao//2024-09-30-14-43-22//depthAndSeg//1727678630381_depthvalues_.pkl~/mnt/d/dataset//urbanbis//qingdao//2024-09-30-14-43-22//metas//cam2pix_1727678630381.npy~/mnt/d/dataset//urbanbis//qingdao//2024-09-30-14-43-22//metas//intrinsic_1727678630381.npy~/mnt/d/dataset//urbanbis//qingdao//2024-09-30-14-43-22//metas//ego2world_1727678630381.npy
SimpleFlight~1727678632001~164.538~654.837~15.6428~0.879945~-0.000349985~-0.000648153~-0.475076~img_SimpleFlight_0_0_1727678632666751200.png;img_SimpleFlight_1_0_1727678632667730100.png;img_SimpleFlight_2_0_1727678632668489400.png;img_SimpleFlight_3_0_1727678632669683200.png;img_SimpleFlight_4_0_1727678632670487600.png;img_SimpleFlight_0_1_1727678632671247300.pfm;img_SimpleFlight_1_1_1727678632678572900.pfm;img_SimpleFlight_2_1_1727678632686327500.pfm;img_SimpleFlight_3_1_1727678632694517800.pfm;img_SimpleFlight_4_1_1727678632704166000.pfm~0.0014732174637943653~-9.12324930039076e-08~-2.1514928722857523~(96, 96)~(0, 128)~(96, 96)~(48, 48)~(0, 64)~(48, 48)~[96, 64, 96]~[-96, -64, -96, 96, 0, 96]~/mnt/d/dataset//urbanbis//qingdao//2024-09-30-14-43-22//points//pointscam_1727678632001.txt~/mnt/d/dataset//urbanbis//qingdao//2024-09-30-14-43-22//lidar_point//lidar_point1727678632001.txt~1727678608079~1727678611190~/mnt/d/dataset//urbanbis//qingdao//2024-09-30-14-43-22//metas//cam2liadar_1727678632001.npy~['/mnt/d/dataset//urbanbis//qingdao//2024-09-30-14-43-22//imgs//img_SimpleFlight_0_0_1727678632001.png', '/mnt/d/dataset//urbanbis//qingdao//2024-09-30-14-43-22//imgs//img_SimpleFlight_1_0_1727678632001.png', '/mnt/d/dataset//urbanbis//qingdao//2024-09-30-14-43-22//imgs//img_SimpleFlight_2_0_1727678632001.png', '/mnt/d/dataset//urbanbis//qingdao//2024-09-30-14-43-22//imgs//img_SimpleFlight_3_0_1727678632001.png', '/mnt/d/dataset//urbanbis//qingdao//2024-09-30-14-43-22//imgs//img_SimpleFlight_4_0_1727678632001.png']~/mnt/d/dataset//urbanbis//qingdao//2024-09-30-14-43-22//depthAndSeg//1727678632001_coor_.pkl~/mnt/d/dataset//urbanbis//qingdao//2024-09-30-14-43-22//depthAndSeg//1727678632001_label_.pkl~/mnt/d/dataset//urbanbis//qingdao//2024-09-30-14-43-22//depthAndSeg//1727678632001_depthvalues_.pkl~/mnt/d/dataset//urbanbis//qingdao//2024-09-30-14-43-22//metas//cam2pix_1727678632001.npy~/mnt/d/dataset//urbanbis//qingdao//2024-09-30-14-43-22//metas//intrinsic_1727678632001.npy~/mnt/d/dataset//urbanbis//qingdao//2024-09-30-14-43-22//metas//ego2world_1727678632001.npy
SimpleFlight~1727678633655~165.884~652.785~15.6476~0.879945~-0.000350015~-0.000648158~-0.475076~img_SimpleFlight_0_0_1727678634313146900.png;img_SimpleFlight_1_0_1727678634314276700.png;img_SimpleFlight_2_0_1727678634315351700.png;img_SimpleFlight_3_0_1727678634316256800.png;img_SimpleFlight_4_0_1727678634317118400.png;img_SimpleFlight_0_1_1727678634318084500.pfm;img_SimpleFlight_1_1_1727678634328189800.pfm;img_SimpleFlight_2_1_1727678634340415400.pfm;img_SimpleFlight_3_1_1727678634353308700.pfm;img_SimpleFlight_4_1_1727678634361316800.pfm~0.0014732547678448478~-1.3927848515035075e-07~-2.151492872344123~(96, 96)~(0, 128)~(96, 96)~(48, 48)~(0, 64)~(48, 48)~[96, 64, 96]~[-96, -64, -96, 96, 0, 96]~/mnt/d/dataset//urbanbis//qingdao//2024-09-30-14-43-22//points//pointscam_1727678633655.txt~/mnt/d/dataset//urbanbis//qingdao//2024-09-30-14-43-22//lidar_point//lidar_point1727678633655.txt~1727678608079~1727678611190~/mnt/d/dataset//urbanbis//qingdao//2024-09-30-14-43-22//metas//cam2liadar_1727678633655.npy~['/mnt/d/dataset//urbanbis//qingdao//2024-09-30-14-43-22//imgs//img_SimpleFlight_0_0_1727678633655.png', '/mnt/d/dataset//urbanbis//qingdao//2024-09-30-14-43-22//imgs//img_SimpleFlight_1_0_1727678633655.png', '/mnt/d/dataset//urbanbis//qingdao//2024-09-30-14-43-22//imgs//img_SimpleFlight_2_0_1727678633655.png', '/mnt/d/dataset//urbanbis//qingdao//2024-09-30-14-43-22//imgs//img_SimpleFlight_3_0_1727678633655.png', '/mnt/d/dataset//urbanbis//qingdao//2024-09-30-14-43-22//imgs//img_SimpleFlight_4_0_1727678633655.png']~/mnt/d/dataset//urbanbis//qingdao//2024-09-30-14-43-22//depthAndSeg//1727678633655_coor_.pkl~/mnt/d/dataset//urbanbis//qingdao//2024-09-30-14-43-22//depthAndSeg//1727678633655_label_.pkl~/mnt/d/dataset//urbanbis//qingdao//2024-09-30-14-43-22//depthAndSeg//1727678633655_depthvalues_.pkl~/mnt/d/dataset//urbanbis//qingdao//2024-09-30-14-43-22//metas//cam2pix_1727678633655.npy~/mnt/d/dataset//urbanbis//qingdao//2024-09-30-14-43-22//metas//intrinsic_1727678633655.npy~/mnt/d/dataset//urbanbis//qingdao//2024-09-30-14-43-22//metas//ego2world_1727678633655.npy
SimpleFlight~1727678635260~167.19~650.793~15.6521~0.879945~-0.000350047~-0.000648158~-0.475076~img_SimpleFlight_0_0_1727678635921637500.png;img_SimpleFlight_1_0_1727678635922627000.png;img_SimpleFlight_2_0_1727678635923971900.png;img_SimpleFlight_3_0_1727678635924834500.png;img_SimpleFlight_4_0_1727678635925587100.png;img_SimpleFlight_0_1_1727678635926384900.pfm;img_SimpleFlight_1_1_1727678635934153200.pfm;img_SimpleFlight_2_1_1727678635942586000.pfm;img_SimpleFlight_3_1_1727678635956050600.pfm;img_SimpleFlight_4_1_1727678635966081200.pfm~0.0014732851727418453~-1.955950262759862e-07~-2.15149287240434~(96, 96)~(0, 128)~(96, 96)~(48, 48)~(0, 64)~(48, 48)~[96, 64, 96]~[-96, -64, -96, 96, 0, 96]~/mnt/d/dataset//urbanbis//qingdao//2024-09-30-14-43-22//points//pointscam_1727678635260.txt~/mnt/d/dataset//urbanbis//qingdao//2024-09-30-14-43-22//lidar_point//lidar_point1727678635260.txt~1727678608079~1727678611190~/mnt/d/dataset//urbanbis//qingdao//2024-09-30-14-43-22//metas//cam2liadar_1727678635260.npy~['/mnt/d/dataset//urbanbis//qingdao//2024-09-30-14-43-22//imgs//img_SimpleFlight_0_0_1727678635260.png', '/mnt/d/dataset//urbanbis//qingdao//2024-09-30-14-43-22//imgs//img_SimpleFlight_1_0_1727678635260.png', '/mnt/d/dataset//urbanbis//qingdao//2024-09-30-14-43-22//imgs//img_SimpleFlight_2_0_1727678635260.png', '/mnt/d/dataset//urbanbis//qingdao//2024-09-30-14-43-22//imgs//img_SimpleFlight_3_0_1727678635260.png', '/mnt/d/dataset//urbanbis//qingdao//2024-09-30-14-43-22//imgs//img_SimpleFlight_4_0_1727678635260.png']~/mnt/d/dataset//urbanbis//qingdao//2024-09-30-14-43-22//depthAndSeg//1727678635260_coor_.pkl~/mnt/d/dataset//urbanbis//qingdao//2024-09-30-14-43-22//depthAndSeg//1727678635260_label_.pkl~/mnt/d/dataset//urbanbis//qingdao//2024-09-30-14-43-22//depthAndSeg//1727678635260_depthvalues_.pkl~/mnt/d/dataset//urbanbis//qingdao//2024-09-30-14-43-22//metas//cam2pix_1727678635260.npy~/mnt/d/dataset//urbanbis//qingdao//2024-09-30-14-43-22//metas//intrinsic_1727678635260.npy~/mnt/d/dataset//urbanbis//qingdao//2024-09-30-14-43-22//metas//ego2world_1727678635260.npy
SimpleFlight~1727678636889~168.515~648.772~15.6568~0.879945~-0.000350056~-0.000648174~-0.475076~img_SimpleFlight_0_0_1727678637553185900.png;img_SimpleFlight_1_0_1727678637554282700.png;img_SimpleFlight_2_0_1727678637555130000.png;img_SimpleFlight_3_0_1727678637556004100.png;img_SimpleFlight_4_0_1727678637557181900.png;img_SimpleFlight_0_1_1727678637557906900.pfm;img_SimpleFlight_1_1_1727678637565483400.pfm;img_SimpleFlight_2_1_1727678637574526400.pfm;img_SimpleFlight_3_1_1727678637584885100.pfm;img_SimpleFlight_4_1_1727678637592964500.pfm~0.0014733218823896866~-1.9623160497763267e-07~-2.151492872427422~(96, 96)~(0, 128)~(96, 96)~(48, 48)~(0, 64)~(48, 48)~[96, 64, 96]~[-96, -64, -96, 96, 0, 96]~/mnt/d/dataset//urbanbis//qingdao//2024-09-30-14-43-22//points//pointscam_1727678636889.txt~/mnt/d/dataset//urbanbis//qingdao//2024-09-30-14-43-22//lidar_point//lidar_point1727678636889.txt~1727678608079~1727678611190~/mnt/d/dataset//urbanbis//qingdao//2024-09-30-14-43-22//metas//cam2liadar_1727678636889.npy~['/mnt/d/dataset//urbanbis//qingdao//2024-09-30-14-43-22//imgs//img_SimpleFlight_0_0_1727678636889.png', '/mnt/d/dataset//urbanbis//qingdao//2024-09-30-14-43-22//imgs//img_SimpleFlight_1_0_1727678636889.png', '/mnt/d/dataset//urbanbis//qingdao//2024-09-30-14-43-22//imgs//img_SimpleFlight_2_0_1727678636889.png', '/mnt/d/dataset//urbanbis//qingdao//2024-09-30-14-43-22//imgs//img_SimpleFlight_3_0_1727678636889.png', '/mnt/d/dataset//urbanbis//qingdao//2024-09-30-14-43-22//imgs//img_SimpleFlight_4_0_1727678636889.png']~/mnt/d/dataset//urbanbis//qingdao//2024-09-30-14-43-22//depthAndSeg//1727678636889_coor_.pkl~/mnt/d/dataset//urbanbis//qingdao//2024-09-30-14-43-22//depthAndSeg//1727678636889_label_.pkl~/mnt/d/dataset//urbanbis//qingdao//2024-09-30-14-43-22//depthAndSeg//1727678636889_depthvalues_.pkl~/mnt/d/dataset//urbanbis//qingdao//2024-09-30-14-43-22//metas//cam2pix_1727678636889.npy~/mnt/d/dataset//urbanbis//qingdao//2024-09-30-14-43-22//metas//intrinsic_1727678636889.npy~/mnt/d/dataset//urbanbis//qingdao//2024-09-30-14-43-22//metas//ego2world_1727678636889.npy
SimpleFlight~1727678638368~169.719~646.936~15.661~0.879945~-0.000350007~-0.000648246~-0.475076~img_SimpleFlight_0_0_1727678639035312200.png;img_SimpleFlight_1_0_1727678639036384700.png;img_SimpleFlight_2_0_1727678639037363200.png;img_SimpleFlight_3_0_1727678639038148900.png;img_SimpleFlight_4_0_1727678639038876300.png;img_SimpleFlight_0_1_1727678639039904100.pfm;img_SimpleFlight_1_1_1727678639047518600.pfm;img_SimpleFlight_2_1_1727678639054940600.pfm;img_SimpleFlight_3_1_1727678639062372400.pfm;img_SimpleFlight_4_1_1727678639072920700.pfm~0.0014734020371086863~-4.158588313958735e-08~-2.151492872362864~(96, 96)~(0, 128)~(96, 96)~(48, 48)~(0, 64)~(48, 48)~[96, 64, 96]~[-96, -64, -96, 96, 0, 96]~/mnt/d/dataset//urbanbis//qingdao//2024-09-30-14-43-22//points//pointscam_1727678638368.txt~/mnt/d/dataset//urbanbis//qingdao//2024-09-30-14-43-22//lidar_point//lidar_point1727678638368.txt~1727678608079~1727678611190~/mnt/d/dataset//urbanbis//qingdao//2024-09-30-14-43-22//metas//cam2liadar_1727678638368.npy~['/mnt/d/dataset//urbanbis//qingdao//2024-09-30-14-43-22//imgs//img_SimpleFlight_0_0_1727678638368.png', '/mnt/d/dataset//urbanbis//qingdao//2024-09-30-14-43-22//imgs//img_SimpleFlight_1_0_1727678638368.png', '/mnt/d/dataset//urbanbis//qingdao//2024-09-30-14-43-22//imgs//img_SimpleFlight_2_0_1727678638368.png', '/mnt/d/dataset//urbanbis//qingdao//2024-09-30-14-43-22//imgs//img_SimpleFlight_3_0_1727678638368.png', '/mnt/d/dataset//urbanbis//qingdao//2024-09-30-14-43-22//imgs//img_SimpleFlight_4_0_1727678638368.png']~/mnt/d/dataset//urbanbis//qingdao//2024-09-30-14-43-22//depthAndSeg//1727678638368_coor_.pkl~/mnt/d/dataset//urbanbis//qingdao//2024-09-30-14-43-22//depthAndSeg//1727678638368_label_.pkl~/mnt/d/dataset//urbanbis//qingdao//2024-09-30-14-43-22//depthAndSeg//1727678638368_depthvalues_.pkl~/mnt/d/dataset//urbanbis//qingdao//2024-09-30-14-43-22//metas//cam2pix_1727678638368.npy~/mnt/d/dataset//urbanbis//qingdao//2024-09-30-14-43-22//metas//intrinsic_1727678638368.npy~/mnt/d/dataset//urbanbis//qingdao//2024-09-30-14-43-22//metas//ego2world_1727678638368.npy
SimpleFlight~1727678640003~171.05~644.907~15.6657~0.879945~-0.000350087~-0.000648246~-0.475076~img_SimpleFlight_0_0_1727678640666356800.png;img_SimpleFlight_1_0_1727678640667433800.png;img_SimpleFlight_2_0_1727678640668605600.png;img_SimpleFlight_3_0_1727678640670487400.png;img_SimpleFlight_4_0_1727678640671889000.png;img_SimpleFlight_0_1_1727678640672834800.pfm;img_SimpleFlight_1_1_1727678640680935300.pfm;img_SimpleFlight_2_1_1727678640688673000.pfm;img_SimpleFlight_3_1_1727678640702509400.pfm;img_SimpleFlight_4_1_1727678640711063100.pfm~0.0014734780493511988~-1.823772359828538e-07~-2.1514928725134186~(96, 96)~(0, 128)~(96, 96)~(48, 48)~(0, 64)~(48, 48)~[96, 64, 96]~[-96, -64, -96, 96, 0, 96]~/mnt/d/dataset//urbanbis//qingdao//2024-09-30-14-43-22//points//pointscam_1727678640003.txt~/mnt/d/dataset//urbanbis//qingdao//2024-09-30-14-43-22//lidar_point//lidar_point1727678640003.txt~1727678608079~1727678611190~/mnt/d/dataset//urbanbis//qingdao//2024-09-30-14-43-22//metas//cam2liadar_1727678640003.npy~['/mnt/d/dataset//urbanbis//qingdao//2024-09-30-14-43-22//imgs//img_SimpleFlight_0_0_1727678640003.png', '/mnt/d/dataset//urbanbis//qingdao//2024-09-30-14-43-22//imgs//img_SimpleFlight_1_0_1727678640003.png', '/mnt/d/dataset//urbanbis//qingdao//2024-09-30-14-43-22//imgs//img_SimpleFlight_2_0_1727678640003.png', '/mnt/d/dataset//urbanbis//qingdao//2024-09-30-14-43-22//imgs//img_SimpleFlight_3_0_1727678640003.png', '/mnt/d/dataset//urbanbis//qingdao//2024-09-30-14-43-22//imgs//img_SimpleFlight_4_0_1727678640003.png']~/mnt/d/dataset//urbanbis//qingdao//2024-09-30-14-43-22//depthAndSeg//1727678640003_coor_.pkl~/mnt/d/dataset//urbanbis//qingdao//2024-09-30-14-43-22//depthAndSeg//1727678640003_label_.pkl~/mnt/d/dataset//urbanbis//qingdao//2024-09-30-14-43-22//depthAndSeg//1727678640003_depthvalues_.pkl~/mnt/d/dataset//urbanbis//qingdao//2024-09-30-14-43-22//metas//cam2pix_1727678640003.npy~/mnt/d/dataset//urbanbis//qingdao//2024-09-30-14-43-22//metas//intrinsic_1727678640003.npy~/mnt/d/dataset//urbanbis//qingdao//2024-09-30-14-43-22//metas//ego2world_1727678640003.npy
SimpleFlight~1727678641455~172.231~643.105~15.6699~0.879945~-0.000350072~-0.000648256~-0.475076~img_SimpleFlight_0_0_1727678642125501300.png;img_SimpleFlight_1_0_1727678642126554100.png;img_SimpleFlight_2_0_1727678642128367300.png;img_SimpleFlight_3_0_1727678642129857500.png;img_SimpleFlight_4_0_1727678642131261400.png;img_SimpleFlight_0_1_1727678642132675900.pfm;img_SimpleFlight_1_1_1727678642141611400.pfm;img_SimpleFlight_2_1_1727678642149003800.pfm;img_SimpleFlight_3_1_1727678642156395300.pfm;img_SimpleFlight_4_1_1727678642164030900.pfm~0.0014734813959748317~-1.4647732701166075e-07~-2.151492872489029~(96, 96)~(0, 128)~(96, 96)~(48, 48)~(0, 64)~(48, 48)~[96, 64, 96]~[-96, -64, -96, 96, 0, 96]~/mnt/d/dataset//urbanbis//qingdao//2024-09-30-14-43-22//points//pointscam_1727678641455.txt~/mnt/d/dataset//urbanbis//qingdao//2024-09-30-14-43-22//lidar_point//lidar_point1727678641455.txt~1727678608079~1727678611190~/mnt/d/dataset//urbanbis//qingdao//2024-09-30-14-43-22//metas//cam2liadar_1727678641455.npy~['/mnt/d/dataset//urbanbis//qingdao//2024-09-30-14-43-22//imgs//img_SimpleFlight_0_0_1727678641455.png', '/mnt/d/dataset//urbanbis//qingdao//2024-09-30-14-43-22//imgs//img_SimpleFlight_1_0_1727678641455.png', '/mnt/d/dataset//urbanbis//qingdao//2024-09-30-14-43-22//imgs//img_SimpleFlight_2_0_1727678641455.png', '/mnt/d/dataset//urbanbis//qingdao//2024-09-30-14-43-22//imgs//img_SimpleFlight_3_0_1727678641455.png', '/mnt/d/dataset//urbanbis//qingdao//2024-09-30-14-43-22//imgs//img_SimpleFlight_4_0_1727678641455.png']~/mnt/d/dataset//urbanbis//qingdao//2024-09-30-14-43-22//depthAndSeg//1727678641455_coor_.pkl~/mnt/d/dataset//urbanbis//qingdao//2024-09-30-14-43-22//depthAndSeg//1727678641455_label_.pkl~/mnt/d/dataset//urbanbis//qingdao//2024-09-30-14-43-22//depthAndSeg//1727678641455_depthvalues_.pkl~/mnt/d/dataset//urbanbis//qingdao//2024-09-30-14-43-22//metas//cam2pix_1727678641455.npy~/mnt/d/dataset//urbanbis//qingdao//2024-09-30-14-43-22//metas//intrinsic_1727678641455.npy~/mnt/d/dataset//urbanbis//qingdao//2024-09-30-14-43-22//metas//ego2world_1727678641455.npy
SimpleFlight~1727678642883~173.393~641.333~15.674~0.879945~-0.000350078~-0.000648223~-0.475076~img_SimpleFlight_0_0_1727678643549223500.png;img_SimpleFlight_1_0_1727678643550175800.png;img_SimpleFlight_2_0_1727678643550937000.png;img_SimpleFlight_3_0_1727678643551738500.png;img_SimpleFlight_4_0_1727678643552638300.png;img_SimpleFlight_0_1_1727678643553445100.pfm;img_SimpleFlight_1_1_1727678643560975100.pfm;img_SimpleFlight_2_1_1727678643568289700.pfm;img_SimpleFlight_3_1_1727678643575906700.pfm;img_SimpleFlight_4_1_1727678643585976800.pfm~0.0014734290204599762~-1.883917284983328e-07~-2.151492872487646~(96, 96)~(0, 128)~(96, 96)~(48, 48)~(0, 64)~(48, 48)~[96, 64, 96]~[-96, -64, -96, 96, 0, 96]~/mnt/d/dataset//urbanbis//qingdao//2024-09-30-14-43-22//points//pointscam_1727678642883.txt~/mnt/d/dataset//urbanbis//qingdao//2024-09-30-14-43-22//lidar_point//lidar_point1727678642883.txt~1727678608079~1727678611190~/mnt/d/dataset//urbanbis//qingdao//2024-09-30-14-43-22//metas//cam2liadar_1727678642883.npy~['/mnt/d/dataset//urbanbis//qingdao//2024-09-30-14-43-22//imgs//img_SimpleFlight_0_0_1727678642883.png', '/mnt/d/dataset//urbanbis//qingdao//2024-09-30-14-43-22//imgs//img_SimpleFlight_1_0_1727678642883.png', '/mnt/d/dataset//urbanbis//qingdao//2024-09-30-14-43-22//imgs//img_SimpleFlight_2_0_1727678642883.png', '/mnt/d/dataset//urbanbis//qingdao//2024-09-30-14-43-22//imgs//img_SimpleFlight_3_0_1727678642883.png', '/mnt/d/dataset//urbanbis//qingdao//2024-09-30-14-43-22//imgs//img_SimpleFlight_4_0_1727678642883.png']~/mnt/d/dataset//urbanbis//qingdao//2024-09-30-14-43-22//depthAndSeg//1727678642883_coor_.pkl~/mnt/d/dataset//urbanbis//qingdao//2024-09-30-14-43-22//depthAndSeg//1727678642883_label_.pkl~/mnt/d/dataset//urbanbis//qingdao//2024-09-30-14-43-22//depthAndSeg//1727678642883_depthvalues_.pkl~/mnt/d/dataset//urbanbis//qingdao//2024-09-30-14-43-22//metas//cam2pix_1727678642883.npy~/mnt/d/dataset//urbanbis//qingdao//2024-09-30-14-43-22//metas//intrinsic_1727678642883.npy~/mnt/d/dataset//urbanbis//qingdao//2024-09-30-14-43-22//metas//ego2world_1727678642883.npy
SimpleFlight~1727678644515~174.721~639.307~15.6786~0.879945~-0.000350064~-0.000648254~-0.475076~img_SimpleFlight_0_0_1727678645180477600.png;img_SimpleFlight_1_0_1727678645181407400.png;img_SimpleFlight_2_0_1727678645182590000.png;img_SimpleFlight_3_0_1727678645183391800.png;img_SimpleFlight_4_0_1727678645184190300.png;img_SimpleFlight_0_1_1727678645185365000.pfm;img_SimpleFlight_1_1_1727678645193368100.pfm;img_SimpleFlight_2_1_1727678645201031600.pfm;img_SimpleFlight_3_1_1727678645213462400.pfm;img_SimpleFlight_4_1_1727678645221253800.pfm~0.0014734702749667592~-1.342984977885014e-07~-2.1514928724732045~(96, 96)~(0, 128)~(96, 96)~(48, 48)~(0, 64)~(48, 48)~[96, 64, 96]~[-96, -64, -96, 96, 0, 96]~/mnt/d/dataset//urbanbis//qingdao//2024-09-30-14-43-22//points//pointscam_1727678644515.txt~/mnt/d/dataset//urbanbis//qingdao//2024-09-30-14-43-22//lidar_point//lidar_point1727678644515.txt~1727678608079~1727678611190~/mnt/d/dataset//urbanbis//qingdao//2024-09-30-14-43-22//metas//cam2liadar_1727678644515.npy~['/mnt/d/dataset//urbanbis//qingdao//2024-09-30-14-43-22//imgs//img_SimpleFlight_0_0_1727678644515.png', '/mnt/d/dataset//urbanbis//qingdao//2024-09-30-14-43-22//imgs//img_SimpleFlight_1_0_1727678644515.png', '/mnt/d/dataset//urbanbis//qingdao//2024-09-30-14-43-22//imgs//img_SimpleFlight_2_0_1727678644515.png', '/mnt/d/dataset//urbanbis//qingdao//2024-09-30-14-43-22//imgs//img_SimpleFlight_3_0_1727678644515.png', '/mnt/d/dataset//urbanbis//qingdao//2024-09-30-14-43-22//imgs//img_SimpleFlight_4_0_1727678644515.png']~/mnt/d/dataset//urbanbis//qingdao//2024-09-30-14-43-22//depthAndSeg//1727678644515_coor_.pkl~/mnt/d/dataset//urbanbis//qingdao//2024-09-30-14-43-22//depthAndSeg//1727678644515_label_.pkl~/mnt/d/dataset//urbanbis//qingdao//2024-09-30-14-43-22//depthAndSeg//1727678644515_depthvalues_.pkl~/mnt/d/dataset//urbanbis//qingdao//2024-09-30-14-43-22//metas//cam2pix_1727678644515.npy~/mnt/d/dataset//urbanbis//qingdao//2024-09-30-14-43-22//metas//intrinsic_1727678644515.npy~/mnt/d/dataset//urbanbis//qingdao//2024-09-30-14-43-22//metas//ego2world_1727678644515.npy
SimpleFlight~1727678646093~176.006~637.349~15.6831~0.879945~-0.000350064~-0.000648285~-0.475076~img_SimpleFlight_0_0_1727678646760562200.png;img_SimpleFlight_1_0_1727678646761758200.png;img_SimpleFlight_2_0_1727678646762700000.png;img_SimpleFlight_3_0_1727678646764044200.png;img_SimpleFlight_4_0_1727678646764819200.png;img_SimpleFlight_0_1_1727678646765605800.pfm;img_SimpleFlight_1_1_1727678646776900500.pfm;img_SimpleFlight_2_1_1727678646787902600.pfm;img_SimpleFlight_3_1_1727678646796275300.pfm;img_SimpleFlight_4_1_1727678646803587000.pfm~0.0014735248316159856~-1.0484375382219711e-07~-2.1514928724851115~(96, 96)~(0, 128)~(96, 96)~(48, 48)~(0, 64)~(48, 48)~[96, 64, 96]~[-96, -64, -96, 96, 0, 96]~/mnt/d/dataset//urbanbis//qingdao//2024-09-30-14-43-22//points//pointscam_1727678646093.txt~/mnt/d/dataset//urbanbis//qingdao//2024-09-30-14-43-22//lidar_point//lidar_point1727678646093.txt~1727678608079~1727678611190~/mnt/d/dataset//urbanbis//qingdao//2024-09-30-14-43-22//metas//cam2liadar_1727678646093.npy~['/mnt/d/dataset//urbanbis//qingdao//2024-09-30-14-43-22//imgs//img_SimpleFlight_0_0_1727678646093.png', '/mnt/d/dataset//urbanbis//qingdao//2024-09-30-14-43-22//imgs//img_SimpleFlight_1_0_1727678646093.png', '/mnt/d/dataset//urbanbis//qingdao//2024-09-30-14-43-22//imgs//img_SimpleFlight_2_0_1727678646093.png', '/mnt/d/dataset//urbanbis//qingdao//2024-09-30-14-43-22//imgs//img_SimpleFlight_3_0_1727678646093.png', '/mnt/d/dataset//urbanbis//qingdao//2024-09-30-14-43-22//imgs//img_SimpleFlight_4_0_1727678646093.png']~/mnt/d/dataset//urbanbis//qingdao//2024-09-30-14-43-22//depthAndSeg//1727678646093_coor_.pkl~/mnt/d/dataset//urbanbis//qingdao//2024-09-30-14-43-22//depthAndSeg//1727678646093_label_.pkl~/mnt/d/dataset//urbanbis//qingdao//2024-09-30-14-43-22//depthAndSeg//1727678646093_depthvalues_.pkl~/mnt/d/dataset//urbanbis//qingdao//2024-09-30-14-43-22//metas//cam2pix_1727678646093.npy~/mnt/d/dataset//urbanbis//qingdao//2024-09-30-14-43-22//metas//intrinsic_1727678646093.npy~/mnt/d/dataset//urbanbis//qingdao//2024-09-30-14-43-22//metas//ego2world_1727678646093.npy
